{"type":"FeatureCollection","features":[{"type":"Feature","properties":{"name":"TRENQUE LAUQUEN","province":"BUENOS AIRES"},"geometry":{"type":"Point","coordinates":[-62.72613,-35.96904]}},{"type":"Feature","properties":{"name":"PEHUAJO AERO","province":"BUENOS AIRES"},"geometry":{"type":"Point","coordinates":[-61.85978,-35.8407]}},{"type":"Feature","properties":{"name":"JUNIN AERO","province":"BUENOS AIRES"},"geometry":{"type":"Point","coordinates":[-60.93127,-34.55251]}},{"type":"Feature","properties":{"name":"NUEVE DE JULIO","province":"BUENOS AIRES"},"geometry":{"type":"Point","coordinates":[-60.88191,-35.43899]}},{"type":"Feature","properties":{"name":"SAN FERNANDO","province":"BUENOS AIRES"},"geometry":{"type":"Point","coordinates":[-58.58449,-34.45502]}},{"type":"Feature","properties":{"name":"LAS FLORES AERO","province":"BUENOS AIRES"},"geometry":{"type":"Point","coordinates":[-59.13724,-36.04149]}},{"type":"Feature","properties":{"name":"CAMPO DE MAYO AERO","province":"BUENOS AIRES"},"geometry":{"type":"Point","coordinates":[-58.675,-34.53591]}},{"type":"Feature","properties":{"name":"EL PALOMAR AERO","province":"BUENOS AIRES"},"geometry":{"type":"Point","coordinates":[-58.61258,-34.60304]}},{"type":"Feature","properties":{"name":"MARIANO MORENO AERO","province":"BUENOS AIRES"},"geometry":{"type":"Point","coordinates":[-58.78656,-34.55789]}},{"type":"Feature","properties":{"name":"MERLO AERO","province":"BUENOS AIRES"},"geometry":{"type":"Point","coordinates":[-58.74611,-34.68464]}},{"type":"Feature","properties":{"name":"MORON AERO","province":"BUENOS AIRES"},"geometry":{"type":"Point","coordinates":[-58.63821,-34.67115]}},{"type":"Feature","properties":{"name":"EZEIZA AERO","province":"BUENOS AIRES"},"geometry":{"type":"Point","coordinates":[-58.54229,-34.81856]}},{"type":"Feature","properties":{"name":"LA PLATA AERO","province":"BUENOS AIRES"},"geometry":{"type":"Point","coordinates":[-57.89608,-34.96614]}},{"type":"Feature","properties":{"name":"PUNTA INDIO B.A.","province":"BUENOS AIRES"},"geometry":{"type":"Point","coordinates":[-57.29254,-35.35118]}},{"type":"Feature","properties":{"name":"CORONEL SUAREZ AERO","province":"BUENOS AIRES"},"geometry":{"type":"Point","coordinates":[-61.89072,-37.45334]}},{"type":"Feature","properties":{"name":"BOLIVAR AERO","province":"BUENOS AIRES"},"geometry":{"type":"Point","coordinates":[-61.07265,-36.18638]}},{"type":"Feature","properties":{"name":"AZUL AERO","province":"BUENOS AIRES"},"geometry":{"type":"Point","coordinates":[-59.88642,-36.83212]}},{"type":"Feature","properties":{"name":"OLAVARRIA AERO","province":"BUENOS AIRES"},"geometry":{"type":"Point","coordinates":[-60.2228,-36.89058]}},{"type":"Feature","properties":{"name":"TANDIL AERO","province":"BUENOS AIRES"},"geometry":{"type":"Point","coordinates":[-59.23323,-37.24117]}},{"type":"Feature","properties":{"name":"DOLORES AERO","province":"BUENOS AIRES"},"geometry":{"type":"Point","coordinates":[-57.71687,-36.31695]}},{"type":"Feature","properties":{"name":"BENITO JUAREZ AERO","province":"BUENOS AIRES"},"geometry":{"type":"Point","coordinates":[-59.79106,-37.70129]}},{"type":"Feature","properties":{"name":"VILLA GESELL AERO","province":"BUENOS AIRES"},"geometry":{"type":"Point","coordinates":[-57.01875,-37.23532]}},{"type":"Feature","properties":{"name":"PIGUE AERO","province":"BUENOS AIRES"},"geometry":{"type":"Point","coordinates":[-62.38654,-37.60819]}},{"type":"Feature","properties":{"name":"CORONEL PRINGLES AERO","province":"BUENOS AIRES"},"geometry":{"type":"Point","coordinates":[-61.33008,-38.00446]}},{"type":"Feature","properties":{"name":"TRES ARROYOS","province":"BUENOS AIRES"},"geometry":{"type":"Point","coordinates":[-60.28454,-38.35947]}},{"type":"Feature","properties":{"name":"MAR DEL PLATA AERO","province":"BUENOS AIRES"},"geometry":{"type":"Point","coordinates":[-57.58145,-37.9321]}},{"type":"Feature","properties":{"name":"BAHIA BLANCA AERO","province":"BUENOS AIRES"},"geometry":{"type":"Point","coordinates":[-62.16304,-38.71474]}},{"type":"Feature","properties":{"name":"AEROPARQUE AERO","province":"CAPITAL FEDERAL"},"geometry":{"type":"Point","coordinates":[-58.41982,-34.55891]}},{"type":"Feature","properties":{"name":"BUENOS AIRES","province":"CAPITAL FEDERAL"},"geometry":{"type":"Point","coordinates":[-58.48397,-34.59022]}},{"type":"Feature","properties":{"name":"TINOGASTA","province":"CATAMARCA"},"geometry":{"type":"Point","coordinates":[-67.56526,-28.06725]}},{"type":"Feature","properties":{"name":"CATAMARCA AERO","province":"CATAMARCA"},"geometry":{"type":"Point","coordinates":[-65.75528,-28.59348]}},{"type":"Feature","properties":{"name":"PCIA. ROQUE SAENZ PEÃ‘A AERO","province":"CHACO"},"geometry":{"type":"Point","coordinates":[-60.48678,-26.74637]}},{"type":"Feature","properties":{"name":"RESISTENCIA AERO","province":"CHACO"},"geometry":{"type":"Point","coordinates":[-59.04602,-27.43888]}},{"type":"Feature","properties":{"name":"ESQUEL AERO","province":"CHUBUT"},"geometry":{"type":"Point","coordinates":[-71.145,-42.90588]}},{"type":"Feature","properties":{"name":"PASO DE INDIOS","province":"CHUBUT"},"geometry":{"type":"Point","coordinates":[-69.04753,-43.86177]}},{"type":"Feature","properties":{"name":"PUERTO MADRYN AERO","province":"CHUBUT"},"geometry":{"type":"Point","coordinates":[-65.10154,-42.75552]}},{"type":"Feature","properties":{"name":"TRELEW AERO","province":"CHUBUT"},"geometry":{"type":"Point","coordinates":[-65.28209,-43.20894]}},{"type":"Feature","properties":{"name":"COMODORO RIVADAVIA AERO","province":"CHUBUT"},"geometry":{"type":"Point","coordinates":[-67.46194,-45.7923]}},{"type":"Feature","properties":{"name":"VILLA MARIA DEL RIO SECO","province":"CORDOBA"},"geometry":{"type":"Point","coordinates":[-63.72755,-29.90577]}},{"type":"Feature","properties":{"name":"VILLA DOLORES AERO","province":"CORDOBA"},"geometry":{"type":"Point","coordinates":[-65.14904,-31.95129]}},{"type":"Feature","properties":{"name":"CORDOBA AERO","province":"CORDOBA"},"geometry":{"type":"Point","coordinates":[-64.21185,-31.29663]}},{"type":"Feature","properties":{"name":"CORDOBA OBSERVATORIO","province":"CORDOBA"},"geometry":{"type":"Point","coordinates":[-64.19826,-31.42076]}},{"type":"Feature","properties":{"name":"ESC.AVIACION MILITAR AERO","province":"CORDOBA"},"geometry":{"type":"Point","coordinates":[-64.28061,-31.44207]}},{"type":"Feature","properties":{"name":"PILAR OBS.","province":"CORDOBA"},"geometry":{"type":"Point","coordinates":[-63.88202,-31.66809]}},{"type":"Feature","properties":{"name":"RIO CUARTO AERO","province":"CORDOBA"},"geometry":{"type":"Point","coordinates":[-64.27697,-33.0955]}},{"type":"Feature","properties":{"name":"MARCOS JUAREZ AERO","province":"CORDOBA"},"geometry":{"type":"Point","coordinates":[-62.15051,-32.6797]}},{"type":"Feature","properties":{"name":"LABOULAYE AERO","province":"CORDOBA"},"geometry":{"type":"Point","coordinates":[-63.36763,-34.12784]}},{"type":"Feature","properties":{"name":"CORRIENTES AERO","province":"CORRIENTES"},"geometry":{"type":"Point","coordinates":[-58.75974,-27.44979]}},{"type":"Feature","properties":{"name":"ITUZAINGO","province":"CORRIENTES"},"geometry":{"type":"Point","coordinates":[-56.67725,-27.58565]}},{"type":"Feature","properties":{"name":"MERCEDES AERO (CTES)","province":"CORRIENTES"},"geometry":{"type":"Point","coordinates":[-58.08568,-29.22599]}},{"type":"Feature","properties":{"name":"PASO DE LOS LIBRES AERO","province":"CORRIENTES"},"geometry":{"type":"Point","coordinates":[-57.14849,-29.68931]}},{"type":"Feature","properties":{"name":"MONTE CASEROS AERO","province":"CORRIENTES"},"geometry":{"type":"Point","coordinates":[-57.639,-30.26172]}},{"type":"Feature","properties":{"name":"PARANA AERO","province":"ENTRE RIOS"},"geometry":{"type":"Point","coordinates":[-60.48411,-31.79033]}},{"type":"Feature","properties":{"name":"CONCORDIA AERO","province":"ENTRE RIOS"},"geometry":{"type":"Point","coordinates":[-58.00147,-31.30223]}},{"type":"Feature","properties":{"name":"GUALEGUAYCHU AERO","province":"ENTRE RIOS"},"geometry":{"type":"Point","coordinates":[-58.61076,-33.01245]}},{"type":"Feature","properties":{"name":"LAS LOMITAS","province":"FORMOSA"},"geometry":{"type":"Point","coordinates":[-60.59411,-24.70245]}},{"type":"Feature","properties":{"name":"FORMOSA AERO","province":"FORMOSA"},"geometry":{"type":"Point","coordinates":[-58.22929,-26.21242]}},{"type":"Feature","properties":{"name":"LA QUIACA OBS.","province":"JUJUY"},"geometry":{"type":"Point","coordinates":[-65.60071,-22.10343]}},{"type":"Feature","properties":{"name":"JUJUY U N","province":"JUJUY"},"geometry":{"type":"Point","coordinates":[-65.32629,-24.17857]}},{"type":"Feature","properties":{"name":"JUJUY AERO","province":"JUJUY"},"geometry":{"type":"Point","coordinates":[-65.0955,-24.38396]}},{"type":"Feature","properties":{"name":"GENERAL PICO AERO","province":"LA PAMPA"},"geometry":{"type":"Point","coordinates":[-63.75938,-35.68813]}},{"type":"Feature","properties":{"name":"VICTORICA","province":"LA PAMPA"},"geometry":{"type":"Point","coordinates":[-65.4358,-36.22311]}},{"type":"Feature","properties":{"name":"SANTA ROSA AERO","province":"LA PAMPA"},"geometry":{"type":"Point","coordinates":[-64.27988,-36.59311]}},{"type":"Feature","properties":{"name":"CHILECITO AERO","province":"LA RIOJA"},"geometry":{"type":"Point","coordinates":[-67.44249,-29.21836]}},{"type":"Feature","properties":{"name":"LA RIOJA AERO","province":"LA RIOJA"},"geometry":{"type":"Point","coordinates":[-66.79336,-29.38171]}},{"type":"Feature","properties":{"name":"CHAMICAL AERO","province":"LA RIOJA"},"geometry":{"type":"Point","coordinates":[-66.29641,-30.34773]}},{"type":"Feature","properties":{"name":"CHEPES","province":"LA RIOJA"},"geometry":{"type":"Point","coordinates":[-66.58858,-31.33164]}},{"type":"Feature","properties":{"name":"USPALLATA","province":"MENDOZA"},"geometry":{"type":"Point","coordinates":[-69.34008,-32.59459]}},{"type":"Feature","properties":{"name":"SAN CARLOS (MZA)","province":"MENDOZA"},"geometry":{"type":"Point","coordinates":[-69.04261,-33.77474]}},{"type":"Feature","properties":{"name":"SAN MARTIN (MZA)","province":"MENDOZA"},"geometry":{"type":"Point","coordinates":[-68.46489,-33.07325]}},{"type":"Feature","properties":{"name":"MENDOZA AERO","province":"MENDOZA"},"geometry":{"type":"Point","coordinates":[-68.79631,-32.84375]}},{"type":"Feature","properties":{"name":"MENDOZA OBSERVATORIO","province":"MENDOZA"},"geometry":{"type":"Point","coordinates":[-68.8728,-32.89476]}},{"type":"Feature","properties":{"name":"MALARGUE AERO","province":"MENDOZA"},"geometry":{"type":"Point","coordinates":[-69.58338,-35.48129]}},{"type":"Feature","properties":{"name":"SAN RAFAEL AERO","province":"MENDOZA"},"geometry":{"type":"Point","coordinates":[-68.40163,-34.59087]}},{"type":"Feature","properties":{"name":"IGUAZU AERO","province":"MISIONES"},"geometry":{"type":"Point","coordinates":[-54.47897,-25.73108]}},{"type":"Feature","properties":{"name":"BERNARDO DE IRIGOYEN AERO","province":"MISIONES"},"geometry":{"type":"Point","coordinates":[-53.67121,-26.27793]}},{"type":"Feature","properties":{"name":"POSADAS AERO","province":"MISIONES"},"geometry":{"type":"Point","coordinates":[-55.96705,-27.391]}},{"type":"Feature","properties":{"name":"OBERA AERO","province":"MISIONES"},"geometry":{"type":"Point","coordinates":[-55.13158,-27.48372]}},{"type":"Feature","properties":{"name":"NEUQUEN AERO","province":"NEUQUEN"},"geometry":{"type":"Point","coordinates":[-68.1367,-38.95204]}},{"type":"Feature","properties":{"name":"CHAPELCO AERO","province":"NEUQUEN"},"geometry":{"type":"Point","coordinates":[-71.14463,-40.08031]}},{"type":"Feature","properties":{"name":"CIPOLLETTI","province":"RIO NEGRO"},"geometry":{"type":"Point","coordinates":[-67.9785,-38.94121]}},{"type":"Feature","properties":{"name":"RIO COLORADO","province":"RIO NEGRO"},"geometry":{"type":"Point","coordinates":[-64.08717,-38.99108]}},{"type":"Feature","properties":{"name":"BARILOCHE AERO","province":"RIO NEGRO"},"geometry":{"type":"Point","coordinates":[-71.16417,-41.1475]}},{"type":"Feature","properties":{"name":"MAQUINCHAO","province":"RIO NEGRO"},"geometry":{"type":"Point","coordinates":[-68.70648,-41.2439]}},{"type":"Feature","properties":{"name":"SAN ANTONIO OESTE AERO","province":"RIO NEGRO"},"geometry":{"type":"Point","coordinates":[-65.03093,-40.75716]}},{"type":"Feature","properties":{"name":"VIEDMA AERO","province":"RIO NEGRO"},"geometry":{"type":"Point","coordinates":[-63.007,-40.86347]}},{"type":"Feature","properties":{"name":"EL BOLSON AERO","province":"RIO NEGRO"},"geometry":{"type":"Point","coordinates":[-71.53394,-41.95407]}},{"type":"Feature","properties":{"name":"ORAN AERO","province":"SALTA"},"geometry":{"type":"Point","coordinates":[-64.32814,-23.15469]}},{"type":"Feature","properties":{"name":"TARTAGAL AERO","province":"SALTA"},"geometry":{"type":"Point","coordinates":[-63.79653,-22.61658]}},{"type":"Feature","properties":{"name":"SALTA AERO","province":"SALTA"},"geometry":{"type":"Point","coordinates":[-65.47575,-24.84434]}},{"type":"Feature","properties":{"name":"METAN","province":"SALTA"},"geometry":{"type":"Point","coordinates":[-64.97295,-25.5243]}},{"type":"Feature","properties":{"name":"RIVADAVIA","province":"SALTA"},"geometry":{"type":"Point","coordinates":[-62.88663,-24.18532]}},{"type":"Feature","properties":{"name":"JACHAL","province":"SAN JUAN"},"geometry":{"type":"Point","coordinates":[-68.739,-30.22938]}},{"type":"Feature","properties":{"name":"SAN JUAN AERO","province":"SAN JUAN"},"geometry":{"type":"Point","coordinates":[-68.4224,-31.57462]}},{"type":"Feature","properties":{"name":"SAN LUIS AERO","province":"SAN LUIS"},"geometry":{"type":"Point","coordinates":[-66.35139,-33.27453]}},{"type":"Feature","properties":{"name":"SANTA ROSA DE CONLARA AERO","province":"SAN LUIS"},"geometry":{"type":"Point","coordinates":[-65.17992,-32.37899]}},{"type":"Feature","properties":{"name":"VILLA REYNOLDS AERO","province":"SAN LUIS"},"geometry":{"type":"Point","coordinates":[-65.37369,-33.71814]}},{"type":"Feature","properties":{"name":"PERITO MORENO AERO","province":"SANTA CRUZ"},"geometry":{"type":"Point","coordinates":[-70.98495,-46.53849]}},{"type":"Feature","properties":{"name":"GOBERNADOR GREGORES AERO","province":"SANTA CRUZ"},"geometry":{"type":"Point","coordinates":[-70.16268,-48.78237]}},{"type":"Feature","properties":{"name":"PUERTO DESEADO AERO","province":"SANTA CRUZ"},"geometry":{"type":"Point","coordinates":[-65.90781,-47.73373]}},{"type":"Feature","properties":{"name":"EL CALAFATE AERO","province":"SANTA CRUZ"},"geometry":{"type":"Point","coordinates":[-72.05149,-50.28455]}},{"type":"Feature","properties":{"name":"SAN JULIAN AERO","province":"SANTA CRUZ"},"geometry":{"type":"Point","coordinates":[-68.4224,-31.57462]}},{"type":"Feature","properties":{"name":"SANTA CRUZ AERO","province":"SANTA CRUZ"},"geometry":{"type":"Point","coordinates":[-68.57888,-50.02175]}},{"type":"Feature","properties":{"name":"RIO GALLEGOS AERO","province":"SANTA CRUZ"},"geometry":{"type":"Point","coordinates":[-69.30798,-51.61156]}},{"type":"Feature","properties":{"name":"CERES AERO","province":"SANTA FE"},"geometry":{"type":"Point","coordinates":[-61.93604,-29.87556]}},{"type":"Feature","properties":{"name":"RECONQUISTA AERO","province":"SANTA FE"},"geometry":{"type":"Point","coordinates":[-59.69338,-29.20508]}},{"type":"Feature","properties":{"name":"SUNCHALES AERO","province":"SANTA FE"},"geometry":{"type":"Point","coordinates":[-61.53221,-30.9568]}},{"type":"Feature","properties":{"name":"RAFAELA AERO","province":"SANTA FE"},"geometry":{"type":"Point","coordinates":[-61.50954,-31.27751]}},{"type":"Feature","properties":{"name":"SAUCE VIEJO AERO","province":"SANTA FE"},"geometry":{"type":"Point","coordinates":[-60.80532,-31.7078]}},{"type":"Feature","properties":{"name":"VENADO TUERTO","province":"SANTA FE"},"geometry":{"type":"Point","coordinates":[-61.96136,-33.68226]}},{"type":"Feature","properties":{"name":"EL TREBOL","province":"SANTA FE"},"geometry":{"type":"Point","coordinates":[-61.71198,-32.19216]}},{"type":"Feature","properties":{"name":"ROSARIO AERO","province":"SANTA FE"},"geometry":{"type":"Point","coordinates":[-60.78216,-32.90816]}},{"type":"Feature","properties":{"name":"TERMAS DE RIO HONDO AERO","province":"SANTIAGO DEL ESTERO"},"geometry":{"type":"Point","coordinates":[-64.93464,-27.50713]}},{"type":"Feature","properties":{"name":"SANTIAGO DEL ESTERO AERO","province":"SANTIAGO DEL ESTERO"},"geometry":{"type":"Point","coordinates":[-64.2998,-27.75481]}},{"type":"Feature","properties":{"name":"RIO GRANDE B.A.","province":"TIERRA DEL FUEGO"},"geometry":{"type":"Point","coordinates":[-67.75871,-53.78026]}},{"type":"Feature","properties":{"name":"USHUAIA AERO","province":"TIERRA DEL FUEGO"},"geometry":{"type":"Point","coordinates":[-68.30342,-54.84005]}},{"type":"Feature","properties":{"name":"TUCUMAN AERO","province":"TUCUMAN"},"geometry":{"type":"Point","coordinates":[-65.10843,-26.8373]}}]}