{"type":"FeatureCollection","features":[{"type":"Feature","properties":{"name":"Bariloche"},"geometry":{"type":"Point","coordinates":[-71.3082,-41.1335]}},{"type":"Feature","properties":{"name":"Buenos Aires"},"geometry":{"type":"Point","coordinates":[-58.3816,-34.6037]}},{"type":"Feature","properties":{"name":"Cordoba"},"geometry":{"type":"Point","coordinates":[-64.1888,-31.4201]}},{"type":"Feature","properties":{"name":"El Calafate"},"geometry":{"type":"Point","coordinates":[-72.2648,-50.3379]}},{"type":"Feature","properties":{"name":"Iguazu"},"geometry":{"type":"Point","coordinates":[-54.5736,-25.5952]}},{"type":"Feature","properties":{"name":"Mar del Plata"},"geometry":{"type":"Point","coordinates":[-57.5575,-38.0055]}},{"type":"Feature","properties":{"name":"Mendoza"},"geometry":{"type":"Point","coordinates":[-68.8458,-32.8895]}},{"type":"Feature","properties":{"name":"Salta"},"geometry":{"type":"Point","coordinates":[-65.4232,-24.7821]}},{"type":"Feature","properties":{"name":"Trelew"},"geometry":{"type":"Point","coordinates":[-65.3059,-43.2532]},"id":8},{"type":"Feature","properties":{"name":"Ushuaia"},"geometry":{"type":"Point","coordinates":[-68.303,-54.8019]}}]}